{"buildingData":[{"b_id":"141","name":"GTRI conference center(GCATT)","address":"250 14th Street, NW","image_url":"gcatt.gif","longitude":"-84.395","latitude":"33.7858","phone_num":"(404) 894-5691"}, {"b_id":"61","name":"GTRI research","address":"430 Tenth Street","image_url":"atdn.gif","longitude":"-84.4015","latitude":"33.7811","phone_num":"(404) 407-6937"}, {"b_id":"130","name":"8th St Apartments","address":"555 Eighth Street NW","image_url":"8thst.gif","longitude":"-84.4051","latitude":"33.7801","phone_num":"(404) 894-2470"}, {"b_id":"30","name":"A. French Building","address":"237 Uncle Heinie Way","image_url":"afrench.jpg","longitude":"-84.3946","latitude":"33.7729","phone_num":"No Phone number"}, {"b_id":"888","name":"Academy of Medicine","address":"875 West Peachtree St., NW, Atlanta, GA 30309","image_url":"academyofmedicine.jpg","longitude":"-84.3867","latitude":"33.7783","phone_num":"(404) 894-1414"}, {"b_id":"35","name":"Administration Building","address":"225 North Avenue NW","image_url":"admin.gif","longitude":"-84.3948","latitude":"33.7724","phone_num":"(404) 894-3361"}, {"b_id":"158","name":"Advanced Wood Products","address":"676 Marietta St","image_url":"advancedwood.jpg","longitude":"-84.4014","latitude":"33.7717","phone_num":"(404) 894-4885"}, {"b_id":"151","name":"Aerospace Engineering Combustion Lab","address":"636 Strong Street","image_url":"","longitude":"-84.4025","latitude":"33.7704","phone_num":"(404) 385-5000 "}, {"b_id":"97","name":"Ajax Building","address":"881 Hemphill Avenue","image_url":"ajax.gif","longitude":"-84.4017","latitude":"33.7793","phone_num":"(404) 385-2000 "}, {"b_id":"73","name":"Alexander Memorial Coliseum","address":"965 Fowler Street NW","image_url":"colis.gif","longitude":"-84.3928","latitude":"33.7807","phone_num":"(404) 894-5447"}, {"b_id":"331","name":"Alpha Chi Omega","address":"741 Brittain Dr. NW","image_url":"alphachiomega.gif","longitude":"-84.3929","latitude":"33.7749","phone_num":"(404) 881-6018"}, {"b_id":"337","name":"Alpha Delta Chi","address":"162 Fourth Street, NW","image_url":"alphadeltachi.gif","longitude":"-84.3927","latitude":"33.7754","phone_num":"(404) 876-7655"}, {"b_id":"334","name":"Alpha Delta Pi","address":"729 Brittain Drive NW","image_url":"adp.gif","longitude":"-84.3928","latitude":"33.7745","phone_num":"(404) 815-9737"}, {"b_id":"300","name":"Alpha Epsilon Pi","address":"714 Techwood Dr. NW","image_url":"aep.jpg","longitude":"-84.3923","latitude":"33.7741","phone_num":"(404) 892-6551"}, {"b_id":"333","name":"Alpha Gamma Delta","address":"177 Fifth St. NW","image_url":"agd.gif","longitude":"-84.3929","latitude":"33.7771","phone_num":"(404) 892-3319"}, {"b_id":"302","name":"Alpha Tau Omega","address":"205 Fourth St. NW","image_url":"ato.gif","longitude":"-84.3941","latitude":"33.7762","phone_num":"(404) 894-9189"}, {"b_id":"322","name":"Alpha Xi Delta","address":"847 Techwood Drive","image_url":"alphaxidelta.jpg","longitude":"-84.3918","latitude":"33.7779","phone_num":"No Phone number"}, {"b_id":"3","name":"Alumni House","address":"190 North Avenue NW","image_url":"afhouse.gif","longitude":"-84.3936","latitude":"33.7711","phone_num":"(404) 894-2391"}, {"b_id":"349","name":"Alumni Park","address":"No Address Given","image_url":"alumnipark.gif","longitude":"-84.4049","latitude":"33.7768","phone_num":"No Phone number"}, {"b_id":"140","name":"Aquatic Center","address":"750 Ferst Drive","image_url":"aquatic.gif","longitude":"-84.4041","latitude":"33.7757","phone_num":"(404) 894-8825"}, {"b_id":"108","name":"Armstrong Residence Hall","address":"489 Eighth Street NW","image_url":"armstrong.gif","longitude":"-84.4036","latitude":"33.7792","phone_num":"(404) 894-2470"}, {"b_id":"23B","name":"Army Armory","address":"220 Bobby Dodd Way","image_url":"armory.gif","longitude":"-84.3945","latitude":"33.7736","phone_num":"(404) 894-4760"}, {"b_id":"23A","name":"Army Office","address":"220 Bobby Dodd Way","image_url":"armyrotcoffice.jpg","longitude":"-84.3945","latitude":"33.7736","phone_num":"(404) 894-4760"}, {"b_id":"88","name":"Athletic Association Conference Room","address":"No Address Given","image_url":"conference.gif","longitude":"-84.3936","latitude":"33.7735","phone_num":"No Phone number"}, {"b_id":"99","name":"Baker Building","address":"939 Dalney Street","image_url":"baker.gif","longitude":"-84.3996","latitude":"33.78","phone_num":"(404) 407-6100"}, {"b_id":"339","name":"Baptist Student Union","address":"740 Techwood Dr., NW","image_url":"bsu.jpg","longitude":"-84.3922","latitude":"33.7748","phone_num":"(404) 892-6224"}, {"b_id":"46","name":"Beringause Building","address":"879 Hemphill Avenue NW","image_url":"police.gif","longitude":"-84.4013","latitude":"33.779","phone_num":"(404) 894-2500"}, {"b_id":"303","name":"Beta Theta Pi","address":"764 Fowler St. NW","image_url":"btp.gif","longitude":"-84.3943","latitude":"33.7755","phone_num":"(404) 892-6935"}, {"b_id":"31","name":"Bill Moore Student Success Center","address":"219 Uncle Heinie Way NW","image_url":"moores.gif","longitude":"-84.394","latitude":"33.7725","phone_num":"(404) 894-4160"}, {"b_id":"80","name":"Bill Moore Tennis Center","address":"940 Fowler Street NW","image_url":"moore.jpg","longitude":"-84.3942","latitude":"33.7804","phone_num":"(404) 385-2000 "}, {"b_id":"17","name":"Bobby Dodd Stadium","address":"155 North Avenue NW","image_url":"bdodd.gif","longitude":"-84.3928","latitude":"33.7725","phone_num":"(404) 894-5480"}, {"b_id":"103","name":"Boggs Building","address":"770 State Street","image_url":"boggs.gif","longitude":"-84.3999","latitude":"33.7757","phone_num":"(404) 894-4002"}, {"b_id":"12","name":"Brittain Dining Hall","address":"649 Techwood Drive NW","image_url":"brittain.jpg","longitude":"-84.3914","latitude":"33.7724","phone_num":"(404) 894-2383"}, {"b_id":"152","name":"Broadband Institute Residential Laboratory, Aware Home","address":"479 Tenth St","image_url":"awarehome.gif","longitude":"-84.4029","latitude":"33.7817","phone_num":"(404) 385-4092"}, {"b_id":"7","name":"Brown Residence Hall","address":"625 Techwood Drive NW","image_url":"brown.jpg","longitude":"-84.3919","latitude":"33.7717","phone_num":"(404) 894-2470"}, {"b_id":"60A","name":"Building Construction and Center for GIS (Arch Annex)","address":"280 Ferst Dr NW; Atlanta, GA 30332-0695","image_url":"buildcon.gif","longitude":"-84.3969","latitude":"33.7767","phone_num":"(404) 385-0900"}, {"b_id":"86","name":"Bunger-Henry Building","address":"778 Atlantic Drive NW","image_url":"bunger.gif","longitude":"-84.3982","latitude":"33.7757","phone_num":"(404) 894-1838 "}, {"b_id":"9","name":"Burge Parking Deck","address":"200 North Avenue","image_url":"burgedeck.gif","longitude":"-84.394","latitude":"33.771","phone_num":"(404) 385-7275"}, {"b_id":"340","name":"Burger Bowl Field","address":"No Address Given","image_url":"burger.gif","longitude":"-84.4027","latitude":"33.7784","phone_num":"No Phone number"}, {"b_id":"164","name":"Business Services","address":"711 Marietta Street","image_url":"","longitude":"-84.4015","latitude":"33.7728","phone_num":"(404) 894-5000"}, {"b_id":"109","name":"Caldwell Residence Hall","address":"521 Turner Place NW","image_url":"caldwell.gif","longitude":"-84.4044","latitude":"33.7789","phone_num":"(404) 894-2470"}, {"b_id":"122","name":"Campus Recreation Center","address":"750 Ferst Drive NW","image_url":"crc.gif","longitude":"-84.4032","latitude":"33.7755","phone_num":"(404) 894-2421"}, {"b_id":"36","name":"Carnegie Building","address":"223 Uncle Heinie Way NW","image_url":"carnegie.jpg","longitude":"-84.3943","latitude":"33.7724","phone_num":"(404) 385-4000 "}, {"b_id":"341","name":"Catholic Center","address":"172 Fourth Street, NW","image_url":"catholic.jpg","longitude":"-84.393","latitude":"33.7755","phone_num":"(404) 892-6759"}, {"b_id":"854","name":"CEISMC","address":"866 West Peachtree NW; Atlanta, GA 30308","image_url":"ceismc.gif","longitude":"-84.3877","latitude":"33.7782","phone_num":"(404) 894-8042"}, {"b_id":"790","name":"Centennial Research Building","address":"400 Tenth Street NW","image_url":"crb.jpg","longitude":"-84.4004","latitude":"33.7811","phone_num":"No Phone number"}, {"b_id":"128","name":"Center for Assistive Technology and Environmental Access","address":"490 Tenth Street","image_url":"crt.gif","longitude":"-84.4033","latitude":"33.7813","phone_num":"(404) 894-4960"}, {"b_id":"132","name":"Center Street Apartments","address":"939 Hemphill Avenue NW","image_url":"center.gif","longitude":"-84.4018","latitude":"33.7798","phone_num":"(404) 894-2470"}, {"b_id":"176","name":"Centergy One","address":"75 5th Street, NW, Suite 100; Atlanta, GA 30308","image_url":"atdc.gif","longitude":"-84.3891","latitude":"33.7771","phone_num":"(404) 894-3575"}, {"b_id":"113","name":"Central Receiving-Property Control","address":"888 Hemphill Avenue","image_url":"crpc.gif","longitude":"-84.4024","latitude":"33.7788","phone_num":"(404) 385-1000 "}, {"b_id":"68","name":"Chandler Stadium","address":"255 Ferst Drive NW","image_url":"chandler.gif","longitude":"-84.3948","latitude":"33.7784","phone_num":"No Phone number"}, {"b_id":"25","name":"Chapin Building","address":"681 Cherry St. NW","image_url":"chapin.gif","longitude":"-84.3953","latitude":"33.7733","phone_num":"(404) 894-3959"}, {"b_id":"66","name":"Cherry Emerson Building","address":"310 Ferst Drive NW","image_url":"cherryem.gif","longitude":"-84.3972","latitude":"33.7779","phone_num":"(404) 894-3700"}, {"b_id":"304","name":"Chi Phi","address":"720 Fowler St. NW","image_url":"chiphi.gif","longitude":"-84.394","latitude":"33.7744","phone_num":"(404) 892-1811"}, {"b_id":"305","name":"Chi Psi","address":"150 4th St. NW","image_url":"chipsi.jpg","longitude":"-84.3925","latitude":"33.7752","phone_num":"(404) 892-9623"}, {"b_id":"332","name":"Christian Campus Fellowship","address":"767 Techwood Dr, NW","image_url":"ccf.jpg","longitude":"-84.3917","latitude":"33.7756","phone_num":"(404) 872-3856"}, {"b_id":"153","name":"Christopher W. Klaus Advanced Computing Building","address":"266 Ferst Drive; Atlanta, GA 30332","image_url":"klaus.jpg","longitude":"-84.3962","latitude":"33.7773","phone_num":"No Phone number"}, {"b_id":"13","name":"Cloudman Residence Hall","address":"661 Techwood Drive NW","image_url":"cloudman.jpg","longitude":"-84.3917","latitude":"33.7727","phone_num":"(404) 894-2470"}, {"b_id":"76","name":"College of Architecture","address":"247 Fourth Street NW","image_url":"arch.gif","longitude":"-84.3955","latitude":"33.776","phone_num":"(404) 894-3880"}, {"b_id":"75","name":"College of Architecture-West Wing","address":"247 Fourth Street NW","image_url":"coaw.gif","longitude":"-84.3961","latitude":"33.7761","phone_num":"(404) 894-3880"}, {"b_id":"50","name":"College of Computing","address":"801 Atlantic Drive NW","image_url":"coc.gif","longitude":"-84.3974","latitude":"33.7774","phone_num":"(404) 894-3152"}, {"b_id":"172","name":"College of Management and Barnes & Noble Bookstore","address":"48 Fifth Street, NW, Technology Square, Atlanta, GA 30308-0453","image_url":"barnesnnoble.gif","longitude":"-84.3883","latitude":"33.7763","phone_num":"(404) 894-2515"}, {"b_id":"105","name":"Commander Building","address":"871 McMillan Street NW","image_url":"comm.gif","longitude":"-84.4039","latitude":"33.7789","phone_num":"(404) 894-2470"}, {"b_id":"45","name":"Coon Building","address":"654 Cherry Street NW","image_url":"coon.jpg","longitude":"-84.3958","latitude":"33.7725","phone_num":"(404) 894-2680"}, {"b_id":"115","name":"Couch Building","address":"840 McMillan Street NW","image_url":"couch.gif","longitude":"-84.4044","latitude":"33.7782","phone_num":"(404) 894-8949"}, {"b_id":"100","name":"Crosland Tower","address":"704 Cherry Street NW","image_url":"croslandtower.jpg","longitude":"-84.3953","latitude":"33.7742","phone_num":"(404) 894-4530"}, {"b_id":"139","name":"Curran St Parking Deck","address":"875 Curran Street","image_url":"curran.gif","longitude":"-84.4055","latitude":"33.7792","phone_num":"(404) 385-7275"}, {"b_id":"33B","name":"Custodial Services Building","address":"151 Sixth Street NW","image_url":"okeefe.jpg","longitude":"-84.3925","latitude":"33.7793","phone_num":"No Phone number"}, {"b_id":"22","name":"Daniel Laboratory","address":"200 Bobby Dodd Way","image_url":"daniel.jpg","longitude":"-84.394","latitude":"33.7737","phone_num":"(404) 894-2201"}, {"b_id":"335","name":"Delta Chi","address":"170 Fifth St","image_url":"","longitude":"-84.3928","latitude":"33.7767","phone_num":"No Phone number"}, {"b_id":"307","name":"Delta Sigma Phi","address":"No Address Given","image_url":"dsphi.gif","longitude":"-84.3924","latitude":"33.7757","phone_num":"No Phone number"}, {"b_id":"308","name":"Delta Tau Delta","address":"227 Fourth St. NW","image_url":"dtd.gif","longitude":"-84.3948","latitude":"33.7759","phone_num":"(404) 892-8007"}, {"b_id":"309","name":"Delta Upsilon","address":"154 Fifth St. NW","image_url":"du.jpg","longitude":"-84.3923","latitude":"33.7767","phone_num":"(404) 892-6818"}, {"b_id":"173","name":"Economic Development Building (EDB)","address":"760 Spring Street","image_url":"econdev.gif","longitude":"-84.389","latitude":"33.7755","phone_num":"(404) 894-0777"}, {"b_id":"18","name":"Edge Athletic Center","address":"154 Bobby Dodd Way","image_url":"edge.jpg","longitude":"-84.3925","latitude":"33.7738","phone_num":"(404) 894-5400"}, {"b_id":"153","name":"Engineer\\'s Bookstore","address":"748 Marietta Street","image_url":"engineers.jpg","longitude":"-84.4034","latitude":"33.773","phone_num":"(404) 221-1669"}, {"b_id":"41","name":"Engineering Science and Mechanics (ESM) Building","address":"620 Cherry Street NW","image_url":"esm.jpg","longitude":"-84.3957","latitude":"33.772","phone_num":"(855) 812-5309"}, {"b_id":"73S","name":"Facilities","address":"965 Fowler Street ","image_url":"wrekradio.jpg","longitude":"-84.3927","latitude":"33.7799","phone_num":"No Phone number"}, {"b_id":"32","name":"Facilities","address":"955 Fowler St.","image_url":"hrb.gif","longitude":"-84.3931","latitude":"33.7799","phone_num":"No Phone number"}, {"b_id":"124","name":"Ferst Center for the Arts","address":"349 Ferst Drive NW","image_url":"theater.gif","longitude":"-84.3992","latitude":"33.7748","phone_num":"(404) 894-2787"}, {"b_id":"127","name":"Fiber Optic Network Building","address":"915 Atlantic Drive","image_url":"bio.gif","longitude":"-84.3971","latitude":"33.7793","phone_num":"No Phone number"}, {"b_id":"90","name":"Field Residence Hall","address":"711 Techwood Drive NW","image_url":"field.jpg","longitude":"-84.3917","latitude":"33.7742","phone_num":"(404) 894-2470"}, {"b_id":"119","name":"Fitten Residence Hall","address":"855 McMillian Street NW","image_url":"fitten.gif","longitude":"-84.4038","latitude":"33.7782","phone_num":"(404) 894-2470"}, {"b_id":"110","name":"Folk Residence Hall","address":"531 Turner Place NW","image_url":"folk.gif","longitude":"-84.4048","latitude":"33.779","phone_num":"(404) 894-2470"}, {"b_id":"147","name":"Ford Motor Company Environmental Science and Technology (ES&T)","address":"311 Ferst Drive NW; Atlanta, GA 30332","image_url":"ford.gif","longitude":"-84.396","latitude":"33.7789","phone_num":"(404) 894-3575"}, {"b_id":"117","name":"Freemen Residence Hall","address":"825 McMillian Street NW","image_url":"freeman.gif","longitude":"-84.4039","latitude":"33.7775","phone_num":"(404) 894-2470"}, {"b_id":"106","name":"Fulmer Residence Hall","address":"871 McMillan Street NW","image_url":"fulmer.gif","longitude":"-84.4039","latitude":"33.7789","phone_num":"(404) 894-2470"}, {"b_id":"171","name":"Georgia Tech Hotel and Conference Center","address":"800 Spring Street NW; Atlanta, GA 30308","image_url":"hotel.gif","longitude":"-84.3891","latitude":"33.7765","phone_num":"(404) 347-9440"}, {"b_id":"735","name":"Georgia Tech Water Sports","address":"348 Tenth Street NW","image_url":"sailing.gif","longitude":"-84.3985","latitude":"33.7814","phone_num":"No Phone number"}, {"b_id":"17A","name":"Georgia Tech Yellow Jacket Ticketing Office","address":"Football Stadium, under north stands","image_url":"ticketoffice.jpg","longitude":"-84.3925","latitude":"33.7738","phone_num":"No Phone number"}, {"b_id":"16","name":"Glenn Residence Hall","address":"118 Bobby Dodd Way","image_url":"glenn.jpg","longitude":"-84.3916","latitude":"33.7734","phone_num":"(404) 894-2470"}, {"b_id":"170","name":"Global Learning & Conference Center","address":"84 5th Street, Atlanta, GA 30308-1031","image_url":"globallc.gif","longitude":"-84.39","latitude":"33.7764","phone_num":"(404) 385-3500"}, {"b_id":"52","name":"Graduate Living Center","address":"301 Tenth Street NW","image_url":"glc.gif","longitude":"-84.3966","latitude":"33.782","phone_num":"(404) 894-5413"}, {"b_id":"342","name":"Griffin Track","address":"No Address Given","image_url":"griftrk.gif","longitude":"-84.3947","latitude":"33.7797","phone_num":"No Phone number"}, {"b_id":"56","name":"Groseclose Building","address":"765 Ferst Drive","image_url":"groseclose.gif","longitude":"-84.4019","latitude":"33.7758","phone_num":"(404) 894-2300"}, {"b_id":"136","name":"GTRI (Callaway Building)","address":"505 Tech Way ","image_url":"","longitude":"-84.4027","latitude":"33.771","phone_num":"(404) 894 3200"}, {"b_id":"40","name":"Guggenheim Building","address":"265 North Avenue NW","image_url":"guggheim.jpg","longitude":"-84.3958","latitude":"33.7716","phone_num":"(404) 894-3000"}, {"b_id":"93","name":"Hanson Residence Hall","address":"711 Techwood Drive NW","image_url":"hanson.jpg","longitude":"-84.391","latitude":"33.7742","phone_num":"(404) 894-2470"}, {"b_id":"11","name":"Harris Residence Hall","address":"633 Techwood Drive NW","image_url":"harris.gif","longitude":"-84.3918","latitude":"33.7721","phone_num":"(404) 894-2470"}, {"b_id":"14","name":"Harrison Residence Hall","address":"660 Williams Street NW","image_url":"harrison.jpg","longitude":"-84.3909","latitude":"33.7728","phone_num":"(404) 894-2470"}, {"b_id":"178","name":"Health Systems Institute","address":"828 West Peachtree St NW Atlanta, GA 30308","image_url":"his.jpg","longitude":"-84.3877","latitude":"33.7773","phone_num":"(404) 385-8193"}, {"b_id":"107","name":"Hefner Residence Hall","address":"510 Eighth Street NW","image_url":"hefner.gif","longitude":"-84.4039","latitude":"33.7792","phone_num":"(404) 894-2470"}, {"b_id":"131","name":"Hemphill Avenue Apartments","address":"900 Hemphill Avenue NW","image_url":"hemphill.gif","longitude":"-84.4032","latitude":"33.7799","phone_num":"(404) 894-2470"}, {"b_id":"51","name":"Hinman Research Building","address":"723 Cherry Street NW","image_url":"hinman.jpg","longitude":"-84.3953","latitude":"33.7747","phone_num":"No Phone number"}, {"b_id":"26","name":"Holland Building","address":"680 Power Plant","image_url":"heat.gif","longitude":"-84.3946","latitude":"33.7733","phone_num":"No Phone number"}, {"b_id":"94","name":"Hopkins Residence Hall","address":"711 Techwood Drive NW","image_url":"hopkins.jpg","longitude":"-84.3913","latitude":"33.7741","phone_num":"(404) 894-2470"}, {"b_id":"10","name":"Howell Residence Hall","address":"640 Williams Street NW","image_url":"howell.jpg","longitude":"-84.3909","latitude":"33.7721","phone_num":"(404) 894-2470"}, {"b_id":"81","name":"Howey-Physics Building and Observatory","address":"800 Atlantic Drive NW","image_url":"physics.gif","longitude":"-84.3983","latitude":"33.7775","phone_num":"(404) 894-5201"}, {"b_id":"129","name":"Institute of Paper Science and Technology","address":"500 Tenth Street","image_url":"ipst.gif","longitude":"-84.4045","latitude":"33.781","phone_num":"(404) 894-5700"}, {"b_id":"55","name":"Instructional Center - (IC)","address":"759 Ferst Drive NW","image_url":"ic.gif","longitude":"-84.4014","latitude":"33.7755","phone_num":"(404) 894-2300"}, {"b_id":"137","name":"Ivan Allen College (Habersham)","address":"781 Marietta Street NW","image_url":"haber.gif","longitude":"-84.4044","latitude":"33.7739","phone_num":"(404) 894-2601"}, {"b_id":"144","name":"J. Erskine Love Manufacturing Building","address":"771 Ferst Drive","image_url":"mrdc2.gif","longitude":"-84.4018","latitude":"33.7766","phone_num":"No Phone number"}, {"b_id":"17B","name":"J.C. Shaw Sports Complex; Athletic Association","address":"corner of Bobby Dodd Way and Techwood","image_url":"atheltic.gif","longitude":"-84.3923","latitude":"33.7737","phone_num":"(404) 894-5400"}, {"b_id":"134","name":"Jack C. Stein House (Fourth St)","address":"733 Techwood Drive NW","image_url":"4thstb.gif","longitude":"-84.3916","latitude":"33.7749","phone_num":"No Phone number"}, {"b_id":"74","name":"Junior\\'s Grill","address":"224 Uncle Heinie Way","image_url":"juniors.jpg","longitude":"-84.3944","latitude":"33.7727","phone_num":"(404) 894-1297"}, {"b_id":"310","name":"Kappa Alpha","address":"801 Techwood Dr. NW","image_url":"ka-house.gif","longitude":"-84.3918","latitude":"33.7765","phone_num":"(404) 873-0712"}, {"b_id":"311","name":"Kappa Sigma","address":"182 Sixth St. NW","image_url":"ks.jpg","longitude":"-84.3933","latitude":"33.7779","phone_num":"(404) 892-6252"}, {"b_id":"350","name":"Kessler Campanile","address":"355 Ferst Drive","image_url":"shaft.gif","longitude":"-84.3982","latitude":"33.7743","phone_num":"No Phone number"}, {"b_id":"83","name":"King Facilities Building","address":"915 Atlantic Drive","image_url":"king.gif","longitude":"-84.3961","latitude":"33.7804","phone_num":"No Phone number"}, {"b_id":"145","name":"Lamar Allen Sustainable Education Building","address":"788 Atlantic Drive","image_url":"suse.gif","longitude":"-84.3989","latitude":"33.7762","phone_num":"(404) 894-2201"}, {"b_id":"312","name":"Lambda Chi Alpha","address":"792 Techwood Dr. NW","image_url":"lca.jpg","longitude":"-84.3922","latitude":"33.7763","phone_num":"(404) 881-0982"}, {"b_id":"77","name":"Library and Information Center","address":"704 Cherry Street NW","image_url":"library.jpg","longitude":"-84.3958","latitude":"33.7744","phone_num":"(404) 894-4529"}, {"b_id":"73A","name":"Luck Building","address":"175 Eighth Street","image_url":"luck.jpg","longitude":"-84.3922","latitude":"33.7803","phone_num":"(404) 894-5400"}, {"b_id":"343","name":"Lutheran Center","address":"182 Fifth St., NW","image_url":"luth.jpg","longitude":"-84.3931","latitude":"33.7767","phone_num":"(404) 873-5760"}, {"b_id":"29A","name":"Lyman Hall Building","address":"221 Uncle Heinie Way","image_url":"lyman.jpg","longitude":"-84.3942","latitude":"33.7729","phone_num":"(404) 894-3563"}, {"b_id":"135","name":"Manufacturing Related Disciplines Complex - (MRDC)","address":"801 Ferst Drive","image_url":"mrdc1.gif","longitude":"-84.4005","latitude":"33.777","phone_num":"(404) 894-3200"}, {"b_id":"126","name":"Manufacturing Research Center - (MARC)","address":"813 Ferst Drive NW","image_url":"mrc1.gif","longitude":"-84.4014","latitude":"33.7776","phone_num":"(404) 894-9100"}, {"b_id":"161","name":"Marcus Nanotechnology Building","address":"No Address Given","image_url":"nanotech.jpg","longitude":"-84.3986","latitude":"33.7788","phone_num":"No Phone number"}, {"b_id":"111","name":"Mason Civil Engineering Building","address":"790 Atlantic Drive NW","image_url":"mason.gif","longitude":"-84.3984","latitude":"33.7766","phone_num":"(404) 894-2201"}, {"b_id":"91","name":"Matheson Residence Hall","address":"711 Techwood Drive NW","image_url":"matheson.jpg","longitude":"-84.3916","latitude":"33.7745","phone_num":"(404) 894-2470"}, {"b_id":"65","name":"Maulding Residence Hall (6th St E Apartments)","address":"501 Sixth Street NW","image_url":"6thst.gif","longitude":"-84.4056","latitude":"33.777","phone_num":"(404) 894-2470"}, {"b_id":"48","name":"Mechanical Engineering Research Building","address":"676 ME Drive","image_url":"me.gif","longitude":"-84.3962","latitude":"33.773","phone_num":"(404) 894-3201"}, {"b_id":"167","name":"Molecular Science and Engineering (MoSE or MSE)","address":"No Address Given","image_url":"molescience.jpg","longitude":"-84.3967","latitude":"33.7798","phone_num":"No Phone number"}, {"b_id":"118","name":"Montag Residence Hall","address":"845 McMillan Street NW","image_url":"montag.gif","longitude":"-84.4039","latitude":"33.7779","phone_num":"(404) 894-2470"}, {"b_id":"101","name":"Montgomery-Knight Building","address":"270 Ferst Drive NW","image_url":"knight.jpg","longitude":"-84.396","latitude":"33.7719","phone_num":"(404) 894-3000"}, {"b_id":"59","name":"Navy ROTC Armory","address":"215 Bobby Dodd Way","image_url":"nrotcarm.gif","longitude":"-84.3941","latitude":"33.7741","phone_num":"No Phone number"}, {"b_id":"87","name":"Neely Nuclear Research Center","address":"900 Atlantic Drive NW","image_url":"neely.gif","longitude":"-84.398","latitude":"33.7796","phone_num":"No Phone number"}, {"b_id":"NAE","name":"North Avenue East","address":"120 North Avenue NW","image_url":"NAEMain.jpg","longitude":"-84.391","latitude":"33.7695","phone_num":"No Phone number"}, {"b_id":"NAN","name":"North Avenue North","address":"120 North Avenue NW","image_url":"NAEMain.jpg","longitude":"-84.3912","latitude":"33.771","phone_num":"No Phone number"}, {"b_id":"NAS","name":"North Avenue South","address":"120 North Avenue NW","image_url":"NAEMain.jpg","longitude":"-84.3916","latitude":"33.7691","phone_num":"No Phone number"}, {"b_id":"NAW","name":"North Avenue West","address":"120 North Avenue NW","image_url":"NAEMain.jpg","longitude":"-84.3919","latitude":"33.7707","phone_num":"No Phone number"}, {"b_id":"148","name":"North Campus Parking Deck","address":"352 Peachtree Pl","image_url":"nparkdeck.gif","longitude":"-84.3985","latitude":"33.7802","phone_num":"(404) 385-7275"}, {"b_id":"33A","name":"O\\'Keefe Gym","address":"151 Sixth Street NW","image_url":"ogym.gif","longitude":"-84.3916","latitude":"33.7794","phone_num":"(404) 894-2425"}, {"b_id":"33","name":"O\\'Keefe Main Building","address":"151 Sixth Street NW","image_url":"okeefe.jpg","longitude":"-84.3922","latitude":"33.7789","phone_num":"(404) 894-2425"}, {"b_id":"142","name":"Office of Human Resources","address":"500 Tech Parkway","image_url":"ecrc.gif","longitude":"-84.4026","latitude":"33.7733","phone_num":"(404) 894-3245"}, {"b_id":"138","name":"Office of Information Technology","address":"811 Marietta Street","image_url":"ppc.gif","longitude":"-84.4055","latitude":"33.7748","phone_num":"(404) 894-3570"}, {"b_id":"156","name":"Office of Information Technology (OIT)","address":"845 Marietta Street","image_url":"oitmariettast.gif","longitude":"-84.4064","latitude":"33.7759","phone_num":"(404) 894-7173"}, {"b_id":"58","name":"Old CE","address":"221 Bobby Dodd Way","image_url":"oldce.jpg","longitude":"-84.3947","latitude":"33.7741","phone_num":"(404) 894-3893"}, {"b_id":"146","name":"Parker H. Petit Biotechnology Building (IBB)","address":"315 Ferst Drive; Atlanta, GA 30332","image_url":"bio.gif","longitude":"-84.3973","latitude":"33.7786","phone_num":"(404) 894-6228"}, {"b_id":"720","name":"Paul Heffernan House","address":"No Address Given","image_url":"heff.gif","longitude":"-84.3926","latitude":"33.7767","phone_num":"No Phone number"}, {"b_id":"92","name":"Perry Residence Hall","address":"711 Techwood Drive NW","image_url":"perry.jpg","longitude":"-84.3911","latitude":"33.7745","phone_num":"(404) 894-2470"}, {"b_id":"8","name":"Peters Parking Deck","address":"749 Fowler Street","image_url":"peterspark.gif","longitude":"-84.3935","latitude":"33.7749","phone_num":"(404) 385-7275"}, {"b_id":"95","name":"Pettit Microelectronics Research Center (MIRC)","address":"791 Atlantic Drive","image_url":"mirc.gif","longitude":"-84.3974","latitude":"33.7766","phone_num":"No Phone number"}, {"b_id":"314","name":"Phi Delta Theta","address":"734 Fowler St. NW","image_url":"pdt.gif","longitude":"-84.3941","latitude":"33.7746","phone_num":"(404) 607-9366"}, {"b_id":"315","name":"Phi Gamma Delta","address":"841 Fowler St. NW","image_url":"figi.gif","longitude":"-84.3933","latitude":"33.7776","phone_num":"(404) 892-6780"}, {"b_id":"316","name":"Phi Kappa Sigma","address":"783 Techwood Dr. NW","image_url":"pks.jpg","longitude":"-84.3918","latitude":"33.7761","phone_num":"(404) 892-6833"}, {"b_id":"317","name":"Phi Kappa Tau","address":"175 Fourth St. NW","image_url":"pktau.gif","longitude":"-84.3926","latitude":"33.7758","phone_num":"(404) 892-9817"}, {"b_id":"318","name":"Phi Kappa Theta","address":"800 Fowler St. NW","image_url":"pkt.gif","longitude":"-84.3938","latitude":"33.7767","phone_num":"(404) 892-6579"}, {"b_id":"318A","name":"Phi Mu Sorority","address":"240 5th St NW, Atlanta, GA","image_url":"","longitude":"-84.3949","latitude":"33.7769","phone_num":"(404) 853-4883"}, {"b_id":"319","name":"Phi Sigma Kappa","address":"825 Techwood Dr. NW","image_url":"psk.gif","longitude":"-84.3919","latitude":"33.7771","phone_num":"(404) 892-9846"}, {"b_id":"320","name":"Pi Kappa Alpha","address":"260 Ferst Drive NW","image_url":"pka.gif","longitude":"-84.3952","latitude":"33.7767","phone_num":"(404) 892-9977"}, {"b_id":"336","name":"Pi Kappa Phi","address":"220 Ferst Dr.","image_url":"pikappaphi.jpg","longitude":"-84.3943","latitude":"33.7767","phone_num":"(404) 347-9256"}, {"b_id":"321","name":"Psi Upsilon","address":"831 Techwood Drive","image_url":"psiu.jpg","longitude":"-84.3918","latitude":"33.7775","phone_num":"(404) 892-6398"}, {"b_id":"791","name":"R. Kirk Landon Learning Center","address":"1015 Tumlin Street NW","image_url":"childcare.gif","longitude":"-84.4003","latitude":"33.7825","phone_num":"(404) 249-1500"}, {"b_id":"155","name":"Research Administration","address":"505 Tenth Street","image_url":"sponsoredprograms.gif","longitude":"-84.4039","latitude":"33.7817","phone_num":"No Phone number"}, {"b_id":"18A","name":"Rice Center for Sports Performance","address":"150 Bobby Dodd Way","image_url":"rice.jpg","longitude":"-84.3923","latitude":"33.7737","phone_num":"(404) 894-5400"}, {"b_id":"51D","name":"Rich Building","address":"258 4th Street","image_url":"oit-rich.gif","longitude":"-84.395","latitude":"33.7752","phone_num":"(404) 894-9044"}, {"b_id":"347","name":"Rose Bowl Field","address":"No Address Given","image_url":"rosebowl.gif","longitude":"-84.3948","latitude":"33.7784","phone_num":"No Phone number"}, {"b_id":"348","name":"SAC Fields","address":"750 Ferst Drive NW","image_url":"sacfields.gif","longitude":"-84.4037","latitude":"33.7768","phone_num":"No Phone number"}, {"b_id":"38","name":"Savant Building","address":"631 Cherry St. NW","image_url":"savant.jpg","longitude":"-84.3953","latitude":"33.7721","phone_num":"(404) 893-3320"}, {"b_id":"57","name":"School of Industrial and Systems Engineering","address":"755 Ferst Drive","image_url":"man.gif","longitude":"-84.4019","latitude":"33.7752","phone_num":"(404) 894-2300"}, {"b_id":"323","name":"Sigma Alpha Epsilon","address":"221 Fourth St. NW","image_url":"sae.gif","longitude":"-84.3945","latitude":"33.776","phone_num":"No Phone number"}, {"b_id":"324","name":"Sigma Chi","address":"770 Techwood Dr. NW","image_url":"schi.jpg","longitude":"-84.3922","latitude":"33.7756","phone_num":"(404) 876-5334"}, {"b_id":"325","name":"Sigma Nu","address":"750 Fowler St. NW","image_url":"sn.gif","longitude":"-84.3942","latitude":"33.7751","phone_num":"(404) 815-0986"}, {"b_id":"326","name":"Sigma Phi Epsilon","address":"190 5th st. NW","image_url":"sigep.jpg","longitude":"-84.3934","latitude":"33.7767","phone_num":"(404) 892-6403"}, {"b_id":"2","name":"Skiles Classroom Building","address":"686 Cherry Street NW","image_url":"skiles.jpg","longitude":"-84.3963","latitude":"33.7736","phone_num":"(404) 894-2730"}, {"b_id":"24","name":"Smith Building","address":"685 Cherry St. NW","image_url":"dmsmith.jpg","longitude":"-84.3952","latitude":"33.7737","phone_num":"(404) 894-6822"}, {"b_id":"6","name":"Smith Residence Hall","address":"630 Williams Street NW","image_url":"smith.jpg","longitude":"-84.3913","latitude":"33.7717","phone_num":"(404) 894-2470"}, {"b_id":"123","name":"Smithgall Student Services Building","address":"353 Ferst Drive NW","image_url":"studserv.jpg","longitude":"-84.3995","latitude":"33.7743","phone_num":"(404) 894-2563"}, {"b_id":"125","name":"Southern Regional Education Board","address":"580 Tenth Street","image_url":"sreb.gif","longitude":"-84.4065","latitude":"33.7812","phone_num":"(404) 875-9211"}, {"b_id":"114","name":"Stamps Student Center Commons","address":"350 Ferst Drive NW","image_url":"houston.gif","longitude":"-84.3982","latitude":"33.7737","phone_num":"(404) 894-2788"}, {"b_id":"149","name":"Structural Engineering and Materials Research","address":"625 Lambert Street","image_url":"","longitude":"-84.4031","latitude":"33.7708","phone_num":"No Phone number"}, {"b_id":"54","name":"Student Center Parking Deck(ClyDeck)","address":"391 Ferst Drive NW","image_url":"clydeck.gif","longitude":"-84.4006","latitude":"33.7741","phone_num":"(404) 894-2788"}, {"b_id":"82","name":"Student Health Center","address":"740 Ferst Drive NW","image_url":"healthservices.jpg","longitude":"-84.4031","latitude":"33.7746","phone_num":"(404) 894-2584"}, {"b_id":"39","name":"Swann Building","address":"613 Cherry St. NW","image_url":"swann.gif","longitude":"-84.3954","latitude":"33.7717","phone_num":"(404) 894-7327"}, {"b_id":"327","name":"Tau Kappa Epsilon","address":"159 Fifth St. NW","image_url":"tke.gif","longitude":"-84.3924","latitude":"33.7771","phone_num":"(404) 875-0516"}, {"b_id":"351","name":"Tech Tower Lawn","address":"No Address Given","image_url":"","longitude":"-84.3944","latitude":"33.7718","phone_num":"No Phone number"}, {"b_id":"174","name":"Technology Square Parking Deck","address":"770 Spring Street","image_url":"techsqpark.gif","longitude":"-84.3894","latitude":"33.7756","phone_num":"(404) 385-7275"}, {"b_id":"175","name":"Technology Square Research Building","address":"85 5th Street, NE; Atlanta, GA 30308","image_url":"techsqresearch.gif","longitude":"-84.3901","latitude":"33.7773","phone_num":"(404) 894-1400"}, {"b_id":"70","name":"Tenth&Home","address":"251 Tenth Street NW","image_url":"tenthandhome.gif","longitude":"-84.3954","latitude":"33.7818","phone_num":"(404) 894-2470"}, {"b_id":"328","name":"Theta Chi","address":"840 Techwood Dr. NW","image_url":"thetachi.jpg","longitude":"-84.3924","latitude":"33.7776","phone_num":"(404) 892-6464"}, {"b_id":"329A","name":"Theta Xi","address":"777 Techwood Dr. NW","image_url":"tx.jpg","longitude":"-84.3917","latitude":"33.7758","phone_num":"(404) 892-6915"}, {"b_id":"15","name":"Towers Residence Hall","address":"112 Bobby Dodd Way","image_url":"towers.jpg","longitude":"-84.3911","latitude":"33.7734","phone_num":"(404) 894-2470"}, {"b_id":"165","name":"UA Whitaker Building","address":"313 Ferst Drive NW; Atlanta, GA 30332-0535","image_url":"whitaker.gif","longitude":"-84.3967","latitude":"33.7785","phone_num":"(404) 385-0124"}, {"b_id":"64","name":"Undergraduate Living Center - (ULC)","address":"580 Turner Place NW","image_url":"ulc.gif","longitude":"-84.4055","latitude":"33.7781","phone_num":"(404) 894-2470"}, {"b_id":"85","name":"Van Leer EE/CmpE Building","address":"777 Atlantic Drive NW","image_url":"vanleer.gif","longitude":"-84.3974","latitude":"33.7757","phone_num":"(404) 894-2900"}, {"b_id":"345","name":"Vernon D. and Helen D. Crawford Pool","address":"750 Ferst Drive  Atlanta, GA 30332,USA","image_url":"crawford.gif","longitude":"-84.4039","latitude":"33.7751","phone_num":"(404) 892-8825"}, {"b_id":"42","name":"Visitor Information/Parking","address":"355 Ferst Drive","image_url":"ferstParking.gif","longitude":"-84.3993","latitude":"33.7736","phone_num":"(404) 385-7275"}, {"b_id":"29B","name":"W.H.Emerson Building","address":"221 Uncle Heinie Way","image_url":"","longitude":"-84.3942","latitude":"33.7729","phone_num":"No Phone number"}, {"b_id":"47","name":"Wardlaw Center","address":"177 North Avenue N.W.","image_url":"wardlaw.jpg","longitude":"-84.3928","latitude":"33.7716","phone_num":"(404) 894-8754"}, {"b_id":"84","name":"Weber Space Science and Technology Building I - (SST)","address":"281 Ferst Drive","image_url":"sst.jpg","longitude":"-84.3967","latitude":"33.7728","phone_num":"No Phone number"}, {"b_id":"98","name":"Weber Space Science and Technology Building II - (SST)","address":"275 Ferst Drive","image_url":"sst.jpg","longitude":"-84.3963","latitude":"33.7727","phone_num":"No Phone number"}, {"b_id":"104","name":"Wenn Student Center","address":"350 Ferst Drive NW","image_url":"studcen.jpg","longitude":"-84.3988","latitude":"33.774","phone_num":"(404) 894-2788"}, {"b_id":"344","name":"Wesley Foundation/Methodist Center","address":"189 Fourth St., NW","image_url":"wesley.jpg","longitude":"-84.3933","latitude":"33.7761","phone_num":"(404) 892-6317"}, {"b_id":"346","name":"Westminster Christian Fellowship","address":"724 Techwood Drive; Atlanta, GA 30313","image_url":"westcf.jpg","longitude":"-84.3922","latitude":"33.7746","phone_num":"(404) 892-9723"}, {"b_id":"116","name":"Woodruff Residence Hall","address":"890 Curran Street NW","image_url":"woody.gif","longitude":"-84.4064","latitude":"33.7792","phone_num":"(404) 894-2470"}, {"b_id":"352","name":"Harrison Square","address":"No Address Given","image_url":"","longitude":"-84.3952","latitude":"33.7728","phone_num":"No Phone number"}, {"b_id":"330","name":"Zeta Beta Tau","address":"160 Sixth Street NW","image_url":"zbt.jpg","longitude":"-84.3925","latitude":"33.7779","phone_num":"No Phone number"}, {"b_id":"338","name":"Zeta Tau Alpha","address":"189 Fifth St NW","image_url":"zta.jpg","longitude":"-84.3934","latitude":"33.7772","phone_num":"(404) 875-6826"}]}
